{
"type": "FeatureCollection",
"crs": { "type": "name", "properties": { "name": "urn:ogc:def:crs:OGC:1.3:CRS84" } },
"features": [
{ "type": "Feature", "properties": { "addressLine": "242 E 14th St", "city": "New York", "county": "New York", "latitude": 40.732293, "longitude": -73.985217, "state": "NY" }, "geometry": { "type": "Point", "coordinates": [ -73.985217, 40.732293 ] } },
{ "type": "Feature", "properties": { "addressLine": "2 Penn Plaza", "city": "New York", "county": "New York", "latitude": 40.750969, "longitude": -73.993423, "state": "NY" }, "geometry": { "type": "Point", "coordinates": [ -73.993423, 40.750969 ] } },
{ "type": "Feature", "properties": { "addressLine": "208 McGuinness Boulevard", "city": "Brooklyn", "county": "Kings", "latitude": 40.729782, "longitude": -73.95062, "state": "NY" }, "geometry": { "type": "Point", "coordinates": [ -73.95062, 40.729782 ] } },
{ "type": "Feature", "properties": { "addressLine": "1040 Bedford Avenue", "city": "Brooklyn", "county": "Kings", "latitude": 40.68941, "longitude": -73.95529, "state": "NY" }, "geometry": { "type": "Point", "coordinates": [ -73.95529, 40.68941 ] } },
{ "type": "Feature", "properties": { "addressLine": "761 Seventh Avenue", "city": "New York", "county": "New York", "latitude": 40.761067, "longitude": -73.983015, "state": "NY" }, "geometry": { "type": "Point", "coordinates": [ -73.983015, 40.761067 ] } },
{ "type": "Feature", "properties": { "addressLine": "495 Nostrand Ave", "city": "Brooklyn", "county": "Kings", "latitude": 40.680314, "longitude": -73.949363, "state": "NY" }, "geometry": { "type": "Point", "coordinates": [ -73.949363, 40.680314 ] } },
{ "type": "Feature", "properties": { "addressLine": "798-812 4th Avenue", "city": "Brooklyn", "county": "Kings", "latitude": 40.659176, "longitude": -73.999705, "state": "NY" }, "geometry": { "type": "Point", "coordinates": [ -73.999705, 40.659176 ] } },
{ "type": "Feature", "properties": { "addressLine": "5219-5233 Fifth Avenue", "city": "Brooklyn", "county": "Kings", "latitude": 40.643385, "longitude": -74.011835, "state": "NY" }, "geometry": { "type": "Point", "coordinates": [ -74.011835, 40.643385 ] } },
{ "type": "Feature", "properties": { "addressLine": "1556 Myrtle Avenue", "city": "Brooklyn", "county": "Kings", "latitude": 40.699474, "longitude": -73.911411, "state": "NY" }, "geometry": { "type": "Point", "coordinates": [ -73.911411, 40.699474 ] } },
{ "type": "Feature", "properties": { "addressLine": "534 Coney Island Avenue", "city": "Brooklyn", "county": "Kings", "latitude": 40.644209, "longitude": -73.970425, "state": "NY" }, "geometry": { "type": "Point", "coordinates": [ -73.970425, 40.644209 ] } },
{ "type": "Feature", "properties": { "addressLine": "942 Flatbush Ave", "city": "Brooklyn", "county": "Kings", "latitude": 40.64848, "longitude": -73.95841, "state": "NY" }, "geometry": { "type": "Point", "coordinates": [ -73.95841, 40.64848 ] } },
{ "type": "Feature", "properties": { "addressLine": "458 Utica Ave", "city": "Brooklyn", "county": "Kings", "latitude": 40.66239, "longitude": -73.931719, "state": "NY" }, "geometry": { "type": "Point", "coordinates": [ -73.931719, 40.66239 ] } },
{ "type": "Feature", "properties": { "addressLine": "62-02 Fresh Pond Road", "city": "Middle Village", "county": "Queens", "latitude": 40.713746, "longitude": -73.901388, "state": "NY" }, "geometry": { "type": "Point", "coordinates": [ -73.901388, 40.713746 ] } },
{ "type": "Feature", "properties": { "addressLine": "5717 Queens Blvd", "city": "Woodside", "county": "Queens", "latitude": 40.742216, "longitude": -73.907818, "state": "NY" }, "geometry": { "type": "Point", "coordinates": [ -73.907818, 40.742216 ] } },
{ "type": "Feature", "properties": { "addressLine": "3042 Steinway Street", "city": "Astoria", "county": "Queens", "latitude": 40.762877, "longitude": -73.916031, "state": "NY" }, "geometry": { "type": "Point", "coordinates": [ -73.916031, 40.762877 ] } },
{ "type": "Feature", "properties": { "addressLine": "1667 Pitkin Ave", "city": "Brooklyn", "county": "Kings", "latitude": 40.669655, "longitude": -73.91178, "state": "NY" }, "geometry": { "type": "Point", "coordinates": [ -73.91178, 40.669655 ] } },
{ "type": "Feature", "properties": { "addressLine": "1922 Third Avenue", "city": "Manhattan", "county": "New York", "latitude": 40.791547, "longitude": -73.944919, "state": "NY" }, "geometry": { "type": "Point", "coordinates": [ -73.944919, 40.791547 ] } },
{ "type": "Feature", "properties": { "addressLine": "2755 Broadway", "city": "New York", "county": "New York", "latitude": 40.80123, "longitude": -73.96817, "state": "NY" }, "geometry": { "type": "Point", "coordinates": [ -73.96817, 40.80123 ] } },
{ "type": "Feature", "properties": { "addressLine": "9201 5th Ave", "city": "Brooklyn", "county": "Kings", "latitude": 40.617718, "longitude": -74.029187, "state": "NY" }, "geometry": { "type": "Point", "coordinates": [ -74.029187, 40.617718 ] } },
{ "type": "Feature", "properties": { "addressLine": "1615 Utica Avenue", "city": "Brooklyn", "county": "Kings", "latitude": 40.633232, "longitude": -73.928152, "state": "NY" }, "geometry": { "type": "Point", "coordinates": [ -73.928152, 40.633232 ] } },
{ "type": "Feature", "properties": { "addressLine": "9015 Queens Blvd, FC2", "city": "Flushing", "county": "Queens", "latitude": 40.73412, "longitude": -73.87124, "state": "NY" }, "geometry": { "type": "Point", "coordinates": [ -73.87124, 40.73412 ] } },
{ "type": "Feature", "properties": { "addressLine": "8715 Northern Blvd", "city": "Flushing", "county": "Queens", "latitude": 40.756298, "longitude": -73.880172, "state": "NY" }, "geometry": { "type": "Point", "coordinates": [ -73.880172, 40.756298 ] } },
{ "type": "Feature", "properties": { "addressLine": "108-30 Flatlands Ave", "city": "Brooklyn", "county": "Kings", "latitude": 40.649443, "longitude": -73.891613, "state": "NY" }, "geometry": { "type": "Point", "coordinates": [ -73.891613, 40.649443 ] } },
{ "type": "Feature", "properties": { "addressLine": "2026 Coney Island Ave", "city": "Brooklyn", "county": "Kings", "latitude": 40.607743, "longitude": -73.962127, "state": "NY" }, "geometry": { "type": "Point", "coordinates": [ -73.962127, 40.607743 ] } },
{ "type": "Feature", "properties": { "addressLine": "2160 Flatbush Avenue", "city": "Brooklyn", "county": "Kings", "latitude": 40.61706, "longitude": -73.931024, "state": "NY" }, "geometry": { "type": "Point", "coordinates": [ -73.931024, 40.61706 ] } },
{ "type": "Feature", "properties": { "addressLine": "87-19 Jamaica Avenue", "city": "Woodhaven", "county": "Queens", "latitude": 40.692844, "longitude": -73.856632, "state": "NY" }, "geometry": { "type": "Point", "coordinates": [ -73.856632, 40.692844 ] } },
{ "type": "Feature", "properties": { "addressLine": "707 Lenox Ave.", "city": "New York", "county": "New York", "latitude": 40.820938, "longitude": -73.936166, "state": "NY" }, "geometry": { "type": "Point", "coordinates": [ -73.936166, 40.820938 ] } },
{ "type": "Feature", "properties": { "addressLine": "375 East 149th Street", "city": "Bronx", "county": "Bronx", "latitude": 40.816478, "longitude": -73.918489, "state": "NY" }, "geometry": { "type": "Point", "coordinates": [ -73.918489, 40.816478 ] } },
{ "type": "Feature", "properties": { "addressLine": "3645 Broadway", "city": "New York", "county": "New York", "latitude": 40.82983, "longitude": -73.94828, "state": "NY" }, "geometry": { "type": "Point", "coordinates": [ -73.94828, 40.82983 ] } },
{ "type": "Feature", "properties": { "addressLine": "1453 Forest Ave", "city": "Staten Island", "county": "Richmond", "latitude": 40.624502, "longitude": -74.137033, "state": "NY" }, "geometry": { "type": "Point", "coordinates": [ -74.137033, 40.624502 ] } },
{ "type": "Feature", "properties": { "addressLine": "158-50 Cross Bay Blvd.", "city": "Howard Beach", "county": "Queens", "latitude": 40.659492, "longitude": -73.840248, "state": "NY" }, "geometry": { "type": "Point", "coordinates": [ -73.840248, 40.659492 ] } },
{ "type": "Feature", "properties": { "addressLine": "140-04 Queens Boulevard", "city": "Jamaica", "county": "Queens", "latitude": 40.703752, "longitude": -73.815328, "state": "NY" }, "geometry": { "type": "Point", "coordinates": [ -73.815328, 40.703752 ] } },
{ "type": "Feature", "properties": { "addressLine": "158-05 Union Turnpike", "city": "Flushing", "county": "Queens", "latitude": 40.720398, "longitude": -73.808924, "state": "NY" }, "geometry": { "type": "Point", "coordinates": [ -73.808924, 40.720398 ] } },
{ "type": "Feature", "properties": { "addressLine": "1731 Webster Avenue", "city": "Bronx", "county": "Bronx", "latitude": 40.843897, "longitude": -73.903344, "state": "NY" }, "geometry": { "type": "Point", "coordinates": [ -73.903344, 40.843897 ] } },
{ "type": "Feature", "properties": { "addressLine": "152-03 Northern Blvd", "city": "Flushing", "county": "Queens", "latitude": 40.76528, "longitude": -73.812717, "state": "NY" }, "geometry": { "type": "Point", "coordinates": [ -73.812717, 40.76528 ] } },
{ "type": "Feature", "properties": { "addressLine": "1959 Bruckner Blvd", "city": "Bronx", "county": "Bronx", "latitude": 40.826714, "longitude": -73.85771, "state": "NY" }, "geometry": { "type": "Point", "coordinates": [ -73.85771, 40.826714 ] } },
{ "type": "Feature", "properties": { "addressLine": "2471 Hylan Blvd", "city": "Staten Island", "county": "Richmond", "latitude": 40.570944, "longitude": -74.109577, "state": "NY" }, "geometry": { "type": "Point", "coordinates": [ -74.109577, 40.570944 ] } },
{ "type": "Feature", "properties": { "addressLine": "175-46 Hillside Ave", "city": "Jamaica", "county": "Queens", "latitude": 40.71188, "longitude": -73.78604, "state": "NY" }, "geometry": { "type": "Point", "coordinates": [ -73.78604, 40.71188 ] } },
{ "type": "Feature", "properties": { "addressLine": "152-12 Rockaway Blvd.", "city": "Jamaica", "county": "Queens", "latitude": 40.671979, "longitude": -73.78535, "state": "NY" }, "geometry": { "type": "Point", "coordinates": [ -73.78535, 40.671979 ] } },
{ "type": "Feature", "properties": { "addressLine": "2655 Richmond Avenue", "city": "Staten Island", "county": "Richmond", "latitude": 40.581348, "longitude": -74.166015, "state": "NY" }, "geometry": { "type": "Point", "coordinates": [ -74.166015, 40.581348 ] } },
{ "type": "Feature", "properties": { "addressLine": "5625 Broadway", "city": "Bronx", "county": "Bronx", "latitude": 40.880075, "longitude": -73.90415, "state": "NY" }, "geometry": { "type": "Point", "coordinates": [ -73.90415, 40.880075 ] } },
{ "type": "Feature", "properties": { "addressLine": "1125 E Gun Hill Rd.", "city": "Bronx", "county": "Bronx", "latitude": 40.873674, "longitude": -73.854167, "state": "NY" }, "geometry": { "type": "Point", "coordinates": [ -73.854167, 40.873674 ] } },
{ "type": "Feature", "properties": { "addressLine": "117-05 Francis Lewis Blvd.", "city": "Cambria Heights", "county": "Queens", "latitude": 40.69615, "longitude": -73.745749, "state": "NY" }, "geometry": { "type": "Point", "coordinates": [ -73.745749, 40.69615 ] } },
{ "type": "Feature", "properties": { "addressLine": "3770 Boston Rd.", "city": "Bronx", "county": "Bronx", "latitude": 40.880864, "longitude": -73.838832, "state": "NY" }, "geometry": { "type": "Point", "coordinates": [ -73.838832, 40.880864 ] } },
{ "type": "Feature", "properties": { "addressLine": "1312 Beach Channel Drive", "city": "Far Rockaway", "county": "Queens", "latitude": 40.60559, "longitude": -73.7548, "state": "NY" }, "geometry": { "type": "Point", "coordinates": [ -73.7548, 40.60559 ] } },
{ "type": "Feature", "properties": { "addressLine": "311 Hempstead Turnpike", "city": "Elmont", "county": "Nassau", "latitude": 40.707813, "longitude": -73.715635, "state": "NY" }, "geometry": { "type": "Point", "coordinates": [ -73.715635, 40.707813 ] } }
]
}
